{
  "groups": [
    {
      "name": "Group 1",
      "location": "",
      "members": [
        {
          "name": "Joel Cox",
          "registrationNumber": "156322689",
          "postcode": "SE5 7FY"
        },
        {
          "name": "Georgia Rush",
          "registrationNumber": "1927687426",
          "postcode": "SW11 5EB"
        },
        {
          "name": "Georgia Dirkis",
          "registrationNumber": "104879365",
          "postcode": "SW11 5EB"
        },
        {
          "name": "Suzanne Stephen",
          "registrationNumber": "4254009154",
          "postcode": "E8 3XQ"
        },
        {
          "name": "Isobel Mort",
          "registrationNumber": "653810293",
          "postcode": "SW11 5EB"
        },
        {
          "name": "Brielle Butler",
          "registrationNumber": "1035679937",
          "postcode": "W9 1DJ"
        }
      ]
    },
    {
      "name": "Group 2",
      "location": "",
      "members": [
        {
          "name": "Rachel Shore",
          "registrationNumber": "4093272124",
          "postcode": "SW4 6NW"
        },
        {
          "name": "Hannah Cafe",
          "registrationNumber": "3361806724",
          "postcode": "SW4 7ND"
        },
        {
          "name": "Karla Kaucky",
          "registrationNumber": "1204177431",
          "postcode": "E13 0RF"
        },
        {
          "name": "Matthew Gabe",
          "registrationNumber": "1700139363",
          "postcode": "E5 0LQ"
        },
        {
          "name": "Heidi Parsons",
          "registrationNumber": "175900215",
          "postcode": "TA3 5SE"
        },
        {
          "name": "",
          "registrationNumber": "",
          "postcode": ""
        }
      ]
    },
    {
      "name": "Group 3",
      "location": "",
      "members": [
        {
          "name": "Lawrence Bottomley",
          "registrationNumber": "356857366",
          "postcode": "BA1 3BD"
        },
        {
          "name": "Hannah Long",
          "registrationNumber": "3419941839",
          "postcode": "BA1 3BD"
        },
        {
          "name": "Elliott Stuckey",
          "registrationNumber": "1171408659",
          "postcode": "NP7 7AP"
        },
        {
          "name": "Emma Savill",
          "registrationNumber": "51406761",
          "postcode": "CB2 9NQ"
        },
        {
          "name": "Emily Chomitzki",
          "registrationNumber": "1311073658",
          "postcode": "CV5 6PU"
        },
        {
          "name": "James Johnson-Ogbuneke",
          "registrationNumber": "2033725277",
          "postcode": "CV5 6PU"
        }
      ]
    },
    {
      "name": "Group 4",
      "location": "",
      "members": [
        {
          "name": "Sarah Tayleur",
          "registrationNumber": "1778088642",
          "postcode": "SE5 9AX"
        },
        {
          "name": "Camille Herinckx",
          "registrationNumber": "3358418446",
          "postcode": "E7 8ES"
        },
        {
          "name": "Jonathan Tuffy",
          "registrationNumber": "1415982717",
          "postcode": "E7 8ES"
        },
        {
          "name": "Harry Madge",
          "registrationNumber": "2129881765",
          "postcode": "BA16EG"
        },
        {
          "name": "Martha Gray",
          "registrationNumber": "3318223206",
          "postcode": "TA43JT"
        },
        {
          "name": "Cameron Keogh",
          "registrationNumber": "268324188",
          "postcode": "GL53 0JJ"
        }
      ]
    },
    {
      "name": "Group 5",
      "location": "",
      "members": [
        {
          "name": "Camille Joffroy",
          "registrationNumber": "2157594786",
          "postcode": "NW5 1JD"
        },
        {
          "name": "Paul Mclarnon",
          "registrationNumber": "1251808783",
          "postcode": "CB8 8LB"
        },
        {
          "name": "Philippe Joffroy",
          "registrationNumber": "1183789203",
          "postcode": "EH7 6JA"
        },
        {
          "name": "Georgie Murphy",
          "registrationNumber": "1605399861",
          "postcode": "SW19 3TP"
        },
        {
          "name": "Ben Brown",
          "registrationNumber": "630010966",
          "postcode": "E11 2JW"
        },
        {
          "name": "Jessica Joel",
          "registrationNumber": "1030575463",
          "postcode": "E11 2JW"
        }
      ]
    },
    {
      "name": "Group 6",
      "location": "",
      "members": [
        {
          "name": "Paige McCarthy",
          "registrationNumber": "54406752",
          "postcode": "HA2 6LB"
        },
        {
          "name": "Polly Picton",
          "registrationNumber": "2126735015",
          "postcode": "TN4 0NQ"
        },
        {
          "name": "Angela McCarthy",
          "registrationNumber": "1503080326",
          "postcode": "HA2 6LB"
        },
        {
          "name": "Natalia Coe",
          "registrationNumber": "3827907646",
          "postcode": "E32HQ"
        },
        {
          "name": "Laura Onyon",
          "registrationNumber": "3670306496",
          "postcode": "E1W2RX"
        },
        {
          "name": "Yas Langley",
          "registrationNumber": "3684570214",
          "postcode": "E65AJ"
        }
      ]
    },
    {
      "name": "Group 7",
      "location": "",
      "members": [
        {
          "name": "Leyla Lugal",
          "registrationNumber": "3708169106",
          "postcode": "E147TL"
        },
        {
          "name": "Netty Toth",
          "registrationNumber": "2464157600",
          "postcode": "BS2 9NY"
        },
        {
          "name": "Andrew Fisher",
          "registrationNumber": "1299016204",
          "postcode": "BS2 9NY"
        },
        {
          "name": "Carys Martlew-Cousins",
          "registrationNumber": "2696942732",
          "postcode": "E10EG"
        },
        {
          "name": "Ellen West",
          "registrationNumber": "1563493720",
          "postcode": "PL18 9SF"
        },
        {
          "name": "Lucien Joseph",
          "registrationNumber": "3846575259",
          "postcode": "BS3 3JT"
        }
      ]
    },
    {
      "name": "Group 8",
      "location": "",
      "members": [
        {
          "name": "Ben Tillman",
          "registrationNumber": "3356711197",
          "postcode": "DY99QT"
        },
        {
          "name": "Abbie Tillman",
          "registrationNumber": "1283266155",
          "postcode": "DY99QT"
        },
        {
          "name": "Isobel Lewis",
          "registrationNumber": "1312699344",
          "postcode": "E3 4QE"
        },
        {
          "name": "Molly Errington",
          "registrationNumber": "2079723235",
          "postcode": "SE5 8BG"
        },
        {
          "name": "Felix Laws-Cochrane",
          "registrationNumber": "3927917473",
          "postcode": "NW14LH"
        },
        {
          "name": "Daphne De Leener",
          "registrationNumber": "3187802326",
          "postcode": "NW14LH"
        }
      ]
    },
    {
      "name": "Group 9",
      "location": "",
      "members": [
        {
          "name": "Eleni Kabra",
          "registrationNumber": "2790471175",
          "postcode": "HA5 2JX"
        },
        {
          "name": "Owen Flanagan",
          "registrationNumber": "3319874888",
          "postcode": "HA52HZ"
        },
        {
          "name": "Ankush Thobhani",
          "registrationNumber": "826675256",
          "postcode": "HA54TX"
        },
        {
          "name": "Charalambos Georgiou",
          "registrationNumber": "2666932900",
          "postcode": "HA5 2NF"
        },
        {
          "name": "Janos Venyigei",
          "registrationNumber": "654402875",
          "postcode": "E79FR"
        },
        {
          "name": "Brigita Pristyak",
          "registrationNumber": "918769920",
          "postcode": "E7 9FR"
        }
      ]
    },
    {
      "name": "Group 10",
      "location": "",
      "members": [
        {
          "name": "Franki Gadd",
          "registrationNumber": "3034143696",
          "postcode": "IG9 5RS"
        },
        {
          "name": "Alex Handley",
          "registrationNumber": "2271351203",
          "postcode": "IG9 5RS"
        },
        {
          "name": "Kinan Qutainy",
          "registrationNumber": "3901970500",
          "postcode": "SO41 0QL"
        },
        {
          "name": "Ariane Gadd",
          "registrationNumber": "1589867663",
          "postcode": "OL3 6BT"
        },
        {
          "name": "Timothy Rodgers",
          "registrationNumber": "2520075417",
          "postcode": "OL3 6BT"
        },
        {
          "name": "",
          "registrationNumber": "",
          "postcode": ""
        }
      ]
    },
    {
      "name": "Group 11",
      "location": "",
      "members": [
        {
          "name": "Simon Cox",
          "registrationNumber": "41672811",
          "postcode": "SW12 0ER"
        },
        {
          "name": "MJ Lee",
          "registrationNumber": "3198167963",
          "postcode": "SW17 9HL"
        },
        {
          "name": "Xavier Edmonds-Allen",
          "registrationNumber": "803496307",
          "postcode": "SW179HL"
        },
        {
          "name": "Hitesh Pankhania",
          "registrationNumber": "51323907",
          "postcode": "SL38RQ"
        },
        {
          "name": "Mireia Bellido",
          "registrationNumber": "1022833475",
          "postcode": "08004"
        },
        {
          "name": "\u00c1lvaro Alouane",
          "registrationNumber": "631051608",
          "postcode": "08004"
        }
      ]
    },
    {
      "name": "Group 12",
      "location": "",
      "members": [
        {
          "name": "Matthew Potter",
          "registrationNumber": "3763044146",
          "postcode": "GU1 2HB"
        },
        {
          "name": "Matthew Hartley",
          "registrationNumber": "3514594396",
          "postcode": "SW18 3LU"
        },
        {
          "name": "Andrey Medvedev",
          "registrationNumber": "82785445",
          "postcode": "E14 7FP"
        },
        {
          "name": "George Hood",
          "registrationNumber": "2884327962",
          "postcode": "SE17 2HL"
        },
        {
          "name": "Alannah Crequer",
          "registrationNumber": "3921022174",
          "postcode": "N51AN"
        },
        {
          "name": "Lily Windebank",
          "registrationNumber": "1763067312",
          "postcode": "SW46JZ"
        }
      ]
    },
    {
      "name": "Group 13",
      "location": "",
      "members": [
        {
          "name": "Emiliano Lewis",
          "registrationNumber": "1656751797",
          "postcode": "BS3 3PL"
        },
        {
          "name": "Mark Lewis",
          "registrationNumber": "776942671",
          "postcode": "SW14 7RJ"
        },
        {
          "name": "Leonardo Lewis",
          "registrationNumber": "3465224758",
          "postcode": "CT2 7UF"
        },
        {
          "name": "Daher Aden",
          "registrationNumber": "118507689",
          "postcode": "BS3 3PL"
        },
        {
          "name": "Noah Alhalel",
          "registrationNumber": "3845878659",
          "postcode": "221"
        },
        {
          "name": "Taylor Otterson",
          "registrationNumber": "1575693258",
          "postcode": "BS3 1LF"
        }
      ]
    },
    {
      "name": "Group 14",
      "location": "",
      "members": [
        {
          "name": "Charles Whight",
          "registrationNumber": "293605034",
          "postcode": "SE6 4LG"
        },
        {
          "name": "Flora Lenon",
          "registrationNumber": "1107976529",
          "postcode": "SE22 0RX"
        },
        {
          "name": "Camilla Booth-Clibborn",
          "registrationNumber": "3596829997",
          "postcode": "NW5 2EG"
        },
        {
          "name": "Emily Kane",
          "registrationNumber": "484595435",
          "postcode": "RG9 2JY"
        },
        {
          "name": "Jack Heriz-Smith",
          "registrationNumber": "3648464006",
          "postcode": "BA6 8BG"
        },
        {
          "name": "Matthew Jenkins",
          "registrationNumber": "3952944685",
          "postcode": "SE4 1TD"
        }
      ]
    },
    {
      "name": "Group 15",
      "location": "",
      "members": [
        {
          "name": "Edwin Rosemond",
          "registrationNumber": "1555713037",
          "postcode": "11211"
        },
        {
          "name": "Julianna Lo",
          "registrationNumber": "576278740",
          "postcode": "EC1V 1JT"
        },
        {
          "name": "Guillaume Toujas-Bernate",
          "registrationNumber": "2232097624",
          "postcode": "E96JP"
        },
        {
          "name": "Eliane Ihling",
          "registrationNumber": "699163861",
          "postcode": "Ec1v9aj"
        },
        {
          "name": "Andy Wang",
          "registrationNumber": "1944018343",
          "postcode": "EC1V 9AJ"
        },
        {
          "name": "Robert Wilson",
          "registrationNumber": "1388380945",
          "postcode": "20854"
        }
      ]
    },
    {
      "name": "Group 16",
      "location": "",
      "members": [
        {
          "name": "Jessica Underwood",
          "registrationNumber": "2230853796",
          "postcode": "CO16 8QQ"
        },
        {
          "name": "Chris Underwood",
          "registrationNumber": "2157870401",
          "postcode": "BS57NB"
        },
        {
          "name": "Max Roberts",
          "registrationNumber": "2980345249",
          "postcode": "BS14 0PP"
        },
        {
          "name": "Katie Roberts",
          "registrationNumber": "951399289",
          "postcode": "GL5 1DZ"
        },
        {
          "name": "Riah King-Wall",
          "registrationNumber": "1494774082",
          "postcode": "BS14 0PP"
        },
        {
          "name": "Alexander Dodd",
          "registrationNumber": "675024901",
          "postcode": "BS14 0PP"
        }
      ]
    },
    {
      "name": "Group 17",
      "location": "",
      "members": [
        {
          "name": "Kirsty Wilson",
          "registrationNumber": "3230234666",
          "postcode": "G20 6AH"
        },
        {
          "name": "Brodie Smith",
          "registrationNumber": "2574084972",
          "postcode": "G12 0TP"
        },
        {
          "name": "Patrick Baird",
          "registrationNumber": "1327919994",
          "postcode": "G12 0LZ"
        },
        {
          "name": "Rupert Waley",
          "registrationNumber": "3307621777",
          "postcode": "N19 4PD"
        },
        {
          "name": "Biba Richardson",
          "registrationNumber": "1055328135",
          "postcode": "SE17 1DE"
        },
        {
          "name": "Harriet Woodhall",
          "registrationNumber": "316824418",
          "postcode": "LS7 4PA"
        }
      ]
    },
    {
      "name": "Group 18",
      "location": "",
      "members": [
        {
          "name": "Olivia Threlkeld",
          "registrationNumber": "2123722846",
          "postcode": "E3 2GS"
        },
        {
          "name": "James Wilcock",
          "registrationNumber": "1813589308",
          "postcode": "E3 2GS"
        },
        {
          "name": "Esther Davies",
          "registrationNumber": "3394520069",
          "postcode": "E3 3GS"
        },
        {
          "name": "Alexander Simpson",
          "registrationNumber": "2751876119",
          "postcode": "E3 3GS"
        },
        {
          "name": "Rose Naing",
          "registrationNumber": "379919789",
          "postcode": "E14 6NU"
        },
        {
          "name": "Charlie Roberson",
          "registrationNumber": "131734111",
          "postcode": "E14 6NU"
        }
      ]
    }
  ]
}